City,Lat,Lng,Max Temp,Humidity,Cloudiness,Wind Speed,Country,Date
Tiksi,71.6872,128.8694,-10.71,100,100,6.58,RU,1643674237
Puerto Carreño,6.189,-67.4859,86.99,33,65,6.38,CO,1643674644
Richards Bay,-28.783,32.0377,74.35,82,61,9.89,ZA,1643674645
Rikitea,-23.1203,-134.9692,78.01,67,66,4.72,PF,1643674646
Port Alfred,-33.5906,26.891,74.95,96,100,5.82,ZA,1643674647
Kapit,2.0167,112.9333,73.56,98,100,2.15,MY,1643674648
Badiraguato,25.3667,-107.5167,74.7,25,56,6.91,MX,1643674649
Mandera,3.9366,41.867,75.6,58,87,14.0,KE,1643674649
Muros,42.7762,-9.0603,51.1,75,6,14.52,ES,1643674650
Haines Junction,60.7522,-137.5108,-7.51,97,89,0.22,CA,1643674652
Tuktoyaktuk,69.4541,-133.0374,-16.6,76,40,0.0,CA,1643674652
Cherskiy,68.75,161.3,-10.61,91,100,3.62,RU,1643674653
Kaitangata,-46.2817,169.8464,70.93,74,65,5.79,NZ,1643674485
Busselton,-33.65,115.3333,65.05,53,1,17.31,AU,1643674655
New Norfolk,-42.7826,147.0587,83.7,36,27,3.0,AU,1643674655
Barrow,71.2906,-156.7887,-14.78,76,0,8.05,US,1643674650
Severnoye,56.3491,78.3619,13.46,95,95,9.08,RU,1643674657
Ushuaia,-54.8,-68.3,42.46,81,75,23.02,AR,1643674657
Kapaa,22.0752,-159.319,78.78,70,0,3.44,US,1643674658
Mossamedes,-15.1961,12.1522,71.78,72,99,8.68,AO,1643674573
Ossora,59.2353,163.0719,19.96,94,100,13.98,RU,1643674660
Punta Arenas,-53.15,-70.9167,46.51,76,75,12.66,CL,1643674496
Albany,42.6001,-73.9662,19.58,66,15,1.9,US,1643674622
Faanui,-16.4833,-151.75,81.05,72,6,21.18,PF,1643674662
Bunia,1.5667,30.25,66.83,50,100,1.14,CD,1643674662
Bredasdorp,-34.5322,20.0403,73.27,88,23,11.5,ZA,1643674663
Qaanaaq,77.484,-69.3632,-21.96,53,0,11.34,GL,1643674664
George Town,5.4112,100.3354,79.9,86,20,2.3,MY,1643674511
Atuona,-9.8,-139.0333,78.46,77,14,18.12,PF,1643674666
Mataura,-46.1927,168.8643,75.47,50,65,1.88,NZ,1643674668
Chokurdakh,70.6333,147.9167,-13.92,95,100,2.24,RU,1643674559
Geraldton,-28.7667,114.6,73.81,53,3,23.02,AU,1643674669
Srednekolymsk,67.45,153.6833,-14.15,92,100,4.65,RU,1643674670
Bud,39.447,-86.1758,36.7,71,69,7.05,US,1643674671
Isangel,-19.55,169.2667,78.19,90,100,10.51,VU,1643674492
Avarua,-21.2078,-159.775,75.25,94,40,6.91,CK,1643674486
Port Macquarie,-31.4333,152.9167,85.89,66,8,3.29,AU,1643674673
Ballitoville,-29.539,31.2144,77.16,88,20,6.91,ZA,1643674674
Opuwo,-18.0607,13.84,62.46,63,100,7.0,NA,1643674675
Hasaki,35.7333,140.8333,41.29,40,44,4.47,JP,1643674506
Yangi Marg`ilon,40.4272,71.7189,27.82,80,95,4.61,UZ,1643674495
Ilulissat,69.2167,-51.1,8.62,72,75,12.66,GL,1643674677
Siderno,38.2779,16.302,57.15,77,65,9.33,IT,1643674678
Yellowknife,62.456,-114.3525,-10.44,86,20,6.91,CA,1643674584
Hobyo,5.3505,48.5268,77.13,82,38,12.93,SO,1643674679
Okhotsk,59.3833,143.3,6.8,75,94,16.44,RU,1643674680
Butaritari,3.0707,172.7902,81.45,79,78,13.31,KI,1643674681
Lālmohan,22.3384,90.7419,64.96,69,90,3.91,BD,1643674682
Cortez,37.3489,-108.5859,45.52,21,0,5.75,US,1643674682
Hithadhoo,-0.6,73.0833,82.11,75,26,11.68,MV,1643674683
Iqaluit,63.7506,-68.5145,-29.31,66,20,3.0,CA,1643674684
Whitehorse,60.7161,-135.0538,-1.89,64,0,5.99,CA,1643674578
Tuy Hoa,13.0833,109.3,74.32,91,46,6.67,VN,1643674614
Mācherla,16.4833,79.4333,65.8,84,17,2.73,IN,1643674686
Kalmunai,7.4167,81.8167,78.01,68,99,7.96,LK,1643674687
Chicama,-7.8447,-79.1469,66.74,69,32,6.62,PE,1643674637
Beasain,43.0502,-2.2009,47.86,85,100,11.3,ES,1643674688
Pevek,69.7008,170.3133,-17.48,97,92,0.81,RU,1643674689
La Ronge,55.1001,-105.2842,3.45,72,100,17.27,CA,1643674505
Ponca City,36.707,-97.0856,66.16,30,0,8.05,US,1643674422
Vestmannaeyjar,63.4427,-20.2734,41.72,79,90,36.44,IS,1643674691
Buala,-8.145,159.5921,84.92,67,96,3.91,SB,1643674692
Ambon City,-3.6954,128.1814,86.14,66,40,12.66,ID,1643674693
Houma,29.5958,-90.7195,61.0,64,75,11.5,US,1643674596
Qaqortoq,60.7167,-46.0333,27.1,76,97,19.42,GL,1643674694
Hobart,-42.8794,147.3294,84.06,51,40,3.0,AU,1643674533
Mahébourg,-20.4081,57.7,79.25,78,75,18.41,MU,1643674696
Upernavik,72.7868,-56.1549,-17.36,97,100,7.25,GL,1643674697
Hilo,19.7297,-155.09,80.33,61,40,10.36,US,1643674698
Meulaboh,4.1363,96.1285,75.97,88,42,2.64,ID,1643674699
Port Blair,11.6667,92.75,72.12,76,31,6.49,IN,1643674409
Baykit,61.67,96.37,-4.32,100,100,0.85,RU,1643674416
Saint Paul Harbor,57.79,-152.4072,29.71,80,100,5.75,US,1643674701
Toccoa,34.5773,-83.3324,47.84,39,0,0.0,US,1643674702
Batagay-Alyta,67.8006,130.4114,-21.48,100,98,3.2,RU,1643674703
Hermanus,-34.4187,19.2345,73.9,88,2,9.01,ZA,1643674704
Kidodi,-7.6036,37.0044,70.47,93,100,2.66,TZ,1643674705
Kahului,20.8947,-156.47,80.62,66,40,17.27,US,1643674444
Kindberg,47.5,15.45,34.39,93,76,5.21,AT,1643674706
Lanzhou,36.0564,103.7922,9.68,64,99,1.3,CN,1643674707
San Cristobal,7.7669,-72.225,73.58,81,66,2.42,VE,1643674708
Bengkulu,-3.8004,102.2655,75.85,86,100,3.87,ID,1643674709
Maceió,-9.6658,-35.7353,80.04,83,0,4.61,BR,1643674709
‘Ewa Beach,21.3156,-158.0072,80.55,58,0,15.99,US,1643674711
Hamilton,39.1834,-84.5333,36.23,68,0,0.0,US,1643674463
Dunedin,-45.8742,170.5036,65.8,82,82,14.0,NZ,1643674712
Vaini,-21.2,-175.2,86.16,79,40,9.22,TO,1643674495
Arraial do Cabo,-22.9661,-42.0278,75.16,94,75,3.44,BR,1643674654
Khatanga,71.9667,102.5,-28.84,100,44,2.91,RU,1643674714
Lavrentiya,65.5833,-171.0,-1.46,84,38,11.07,RU,1643674715
Castro,-24.7911,-50.0119,63.16,92,13,3.71,BR,1643674494
Jamestown,42.097,-79.2353,28.04,50,0,4.61,US,1643674500
Guerrero Negro,27.9769,-114.0611,65.75,48,21,11.79,MX,1643674717
Trairi,-3.2778,-39.2689,78.84,76,25,9.98,BR,1643674717
Nouakchott,18.0858,-15.9785,69.73,55,100,14.52,MR,1643674718
Oranjemund,-28.55,16.4333,67.12,84,0,7.65,NA,1643674498
Wewak,-3.5534,143.6268,79.75,76,100,3.18,PG,1643674719
Peterongan,-7.5394,112.2792,78.4,86,100,2.98,ID,1643674720
Kalabo,-14.97,22.6814,66.58,85,100,3.87,ZM,1643674721
Tuatapere,-46.1333,167.6833,75.81,48,75,0.58,NZ,1643674722
Adrar,20.5022,-10.0711,73.67,14,100,10.71,MR,1643674474
Beausejour,50.0622,-96.5167,24.8,90,100,12.53,CA,1643674723
Eilat,29.5581,34.9482,49.84,53,40,0.0,IL,1643674724
Sinegorsk,47.1667,142.5,16.14,84,93,12.86,RU,1643674725
Cape Town,-33.9258,18.4232,75.11,80,0,1.14,ZA,1643674469
Akureyri,65.6835,-18.0878,22.93,93,100,9.22,IS,1643674718
Itoman,26.1247,127.6694,63.37,61,75,8.05,JP,1643674727
Karlskrona,56.1616,15.5866,19.85,61,98,6.4,SE,1643674728
Denpasar,-8.65,115.2167,83.86,74,40,11.5,ID,1643674729
Treinta y Tres,-33.2333,-54.3833,62.42,62,7,9.48,UY,1643674729
Maniitsoq,65.4167,-52.9,7.32,87,99,10.76,GL,1643674730
Vostok,46.4856,135.8833,-3.24,94,99,3.71,RU,1643674731
Kruisfontein,-34.0033,24.7314,70.88,98,99,4.63,ZA,1643674732
Cidreira,-30.1811,-50.2056,73.33,85,26,3.89,BR,1643674733
Carnarvon,-24.8667,113.6333,82.47,65,1,16.11,AU,1643674734
Tabou,4.423,-7.3528,78.98,85,64,5.93,CI,1643674734
Thompson,55.7435,-97.8558,1.56,78,100,6.91,CA,1643674735
Pujilí,-0.95,-78.6833,48.38,100,75,3.44,EC,1643674736
Kendari,-3.945,122.4989,78.55,85,100,2.59,ID,1643674737
Severo-Kuril'sk,50.6789,156.125,29.05,74,100,21.43,RU,1643674738
Mathbaria,22.2876,89.9593,59.38,79,83,1.7,BD,1643674738
Manta,-0.95,-80.7333,76.78,83,75,2.3,EC,1643674739
Mar del Plata,-38.0023,-57.5575,63.88,59,0,0.0,AR,1643674556
Lunenburg,44.3835,-64.3155,15.22,86,54,6.91,CA,1643674741
Port Hedland,-20.3167,118.5667,86.05,79,100,1.14,AU,1643674742
Chenghai,23.4632,116.768,51.71,100,100,4.47,CN,1643674742
Bluff,-46.6,168.3333,75.79,80,37,3.31,NZ,1643674743
Malaṅgawā,26.8568,85.5581,52.92,70,0,1.92,NP,1643674635
Pokhara,28.2333,83.9833,50.07,82,97,1.83,NP,1643674745
Makkah al Mukarramah,21.4267,39.8261,61.0,64,19,9.75,SA,1643674747
Fes,34.0372,-4.9998,52.05,40,0,9.22,MA,1643674735
Sur,22.5667,59.5289,72.0,59,0,5.79,OM,1643674748
Coyhaique,-45.5752,-72.0662,59.61,58,75,9.22,CL,1643674584
Moose Factory,51.2585,-80.6094,-0.42,60,100,8.05,CA,1643674749
Khudumelapye,-23.8833,24.75,71.56,61,93,9.44,BW,1643674750
Warmbad,-28.45,18.7333,76.59,71,19,7.96,NA,1643674752
Saldanha,-33.0117,17.9442,66.25,77,16,6.76,ZA,1643674720
Verkhovyna,48.1557,24.7911,19.56,94,94,4.92,UA,1643674754
Ponta do Sol,32.6667,-17.1,66.0,83,32,12.95,PT,1643674647
Zhuanghe,39.7008,122.9911,18.45,73,47,10.92,CN,1643674755
Blagoyevo,63.3667,47.9167,0.75,98,95,3.83,RU,1643674756
Nanortalik,60.1432,-45.2371,25.61,81,100,16.84,GL,1643674757
Vardø,70.3705,31.1107,22.51,80,56,8.79,NO,1643674758
Quatre Cocos,-20.2078,57.7625,79.09,74,57,23.98,MU,1643674758
Saint George,37.1041,-113.5841,61.27,18,0,3.0,US,1643674759
Torbay,47.6666,-52.7314,32.58,74,100,11.5,CA,1643674761
Hong Kong,22.2855,114.1577,58.95,92,95,1.01,HK,1643674554
Kavaratti,10.5669,72.642,80.46,72,2,10.54,IN,1643674763
Abu Dhabi,24.4667,54.3667,66.96,94,40,3.44,AE,1643674506
Te Anau,-45.4167,167.7167,72.43,44,92,2.15,NZ,1643674765
Narsaq,60.9167,-46.05,26.82,88,99,5.66,GL,1643674766
Verkhnevilyuysk,63.4453,120.3167,-30.37,100,97,3.76,RU,1643674766
Tarján,47.6104,18.5107,38.21,96,97,9.98,HU,1643674767
Olafsvik,64.8945,-23.7142,25.84,80,87,23.2,IS,1643674481
Misratah,32.3754,15.0925,55.56,40,51,17.0,LY,1643674769
Sire,12.9299,5.2043,64.45,11,1,14.9,NG,1643674771
Zverinogolovskoye,54.4586,64.8542,6.75,98,80,6.85,RU,1643674771
Sawākin,19.1059,37.3321,68.79,56,89,14.67,SD,1643674773
Kytmanovo,53.4593,85.4479,9.27,97,100,2.77,RU,1643674774
Genhe,50.7833,121.5167,-15.99,100,93,2.44,CN,1643674775
Kuvandyk,51.4781,57.3552,10.94,98,98,3.47,RU,1643674776
Koumac,-20.5667,164.2833,84.33,63,99,8.25,NC,1643674776
Shimoda,34.6667,138.95,48.56,58,31,14.76,JP,1643674777
Līsakovsk,52.5369,62.4936,16.9,95,100,6.46,KZ,1643674778
Hutang,31.5333,119.4833,37.53,57,98,6.87,CN,1643674779
Lebu,-37.6167,-73.65,58.14,74,2,17.34,CL,1643674780
Provideniya,64.3833,-173.3,6.91,61,75,24.61,RU,1643674781
Santiago de Cao,-7.9589,-79.2392,68.13,83,75,11.5,PE,1643674782
Saint-Philippe,-21.3585,55.7679,76.59,80,100,14.81,RE,1643674782
Vila Velha,-20.3297,-40.2925,75.15,88,100,6.91,BR,1643674784
Inhambane,-23.865,35.3833,75.52,83,37,6.51,MZ,1643674485
Ixtapa,20.7,-105.2,76.23,73,0,13.8,MX,1643674785
Ziyang,29.2497,117.8547,39.96,97,100,2.17,CN,1643674786
Montrose,38.4166,-108.2673,34.79,56,35,2.48,US,1643674564
Abashiri,44.0213,144.2697,10.69,72,20,5.75,JP,1643674788
Bonnyville,54.2668,-110.735,-0.6,87,100,14.47,CA,1643674505
Usinsk,65.9939,57.5281,0.37,98,100,8.21,RU,1643674789
Saskylakh,71.9167,114.0833,-28.8,100,80,2.24,RU,1643674790
Mujiayingzi,42.1167,118.7833,4.05,73,1,6.38,CN,1643674792
Kirakira,-10.4544,161.9205,84.63,73,87,3.53,SB,1643674793
Puerto Ayora,-0.7393,-90.3518,74.55,93,72,1.01,EC,1643674793
Saryg-Sep,51.5,95.6,-25.55,99,64,3.15,RU,1643674795
Dikson,73.5069,80.5464,-2.56,90,100,18.07,RU,1643674570
Inongo,-1.95,18.2667,74.93,64,41,2.8,CD,1643674797
Aklavik,68.2191,-135.0107,1.4,78,75,10.36,CA,1643674798
Necochea,-38.5473,-58.7368,60.04,53,44,7.81,AR,1643674798
Sibu,2.3,111.8167,77.31,94,40,3.44,MY,1643674799
Altukhovo,52.67,34.36,30.47,96,100,9.78,RU,1643674800
Teguise,29.0605,-13.564,66.42,52,97,12.66,ES,1643674801
Esmeraldas,-19.7625,-44.3139,70.84,93,100,1.61,BR,1643674802
Marsá Maţrūḩ,31.3525,27.2453,55.83,67,68,15.52,EG,1643674803
Caraquet,47.7941,-64.9386,10.35,81,63,13.22,CA,1643674803
Arlit,18.7369,7.3853,54.16,21,0,3.98,NE,1643674804
São Filipe,14.8961,-24.4956,75.04,69,100,5.35,CV,1643674806
Padang,-0.9492,100.3543,75.25,88,66,2.06,ID,1643674807
Eyl,7.9803,49.8164,75.24,81,40,13.33,SO,1643674807
Wasco,35.5941,-119.341,59.13,44,100,3.74,US,1643674576
Uvinza,-5.1036,30.3911,65.48,99,100,2.39,TZ,1643674809
Port Lincoln,-34.7333,135.8667,64.49,60,72,21.59,AU,1643674810
Oeiras do Pará,-2.0031,-49.8544,73.8,91,92,2.33,BR,1643674810
Requena,39.4883,-1.1004,50.13,58,1,5.82,ES,1643674811
Atakpamé,7.5333,1.1333,71.83,30,100,2.55,TG,1643674812
East London,-33.0153,27.9116,77.18,73,100,2.71,ZA,1643674813
Petropavlovsk-Kamchatskiy,53.0452,158.6483,25.39,80,100,13.42,RU,1643674814
Chui,-33.6971,-53.4616,63.1,63,22,9.1,UY,1643674808
Dingle,10.9995,122.6711,77.63,86,99,9.71,PH,1643674815
Pāonta Sāhib,30.45,77.6167,50.59,61,0,4.07,IN,1643674816
Sheridan,44.8333,-106.9173,37.58,31,100,5.01,US,1643674817
Lagoa da Canoa,-9.8297,-36.7378,75.78,77,7,10.02,BR,1643674818
Bethel,41.3712,-73.414,24.66,62,0,0.0,US,1643674818
Manado,1.487,124.8455,79.57,83,20,2.3,ID,1643674819
Lady Frere,-31.7031,27.2329,66.58,86,100,4.97,ZA,1643674820
Falkenberg,56.9055,12.4912,34.95,69,97,8.46,SE,1643674820
Yambio,4.5721,28.3955,74.53,30,83,2.3,SS,1643674821
Quaraí,-30.3875,-56.4514,79.48,46,5,15.35,BR,1643674643
Lagoa,39.05,-27.9833,58.46,77,33,23.49,PT,1643674822
‘Āhuimanu,21.4447,-157.8378,80.31,63,0,3.0,US,1643674823
Codrington,-38.2667,141.9667,63.19,62,71,20.49,AU,1643674824
Touros,-5.1989,-35.4608,79.7,73,62,12.17,BR,1643674825
Beringovskiy,63.05,179.3167,6.24,82,96,17.58,RU,1643674807
Verkhnyaya Tishanka,51.3239,40.5328,29.01,93,100,15.73,RU,1643674826
Aksu,41.1231,80.2644,24.8,44,18,3.71,CN,1643674827
Mergen,49.1833,125.2167,-17.43,100,78,0.65,CN,1643674828
Helong,42.5397,128.9972,13.14,77,98,2.44,CN,1643674829
Souillac,-20.5167,57.5167,79.36,78,75,18.41,MU,1643674830
Port-Cartier,50.0334,-66.8654,3.74,91,61,7.43,CA,1643674831
Ribeira Grande,38.5167,-28.7,59.83,75,14,14.32,PT,1643674801
La Primavera,5.4906,-70.4092,84.29,32,71,5.19,CO,1643674832
Sal Rei,16.1833,-22.9167,70.36,78,100,11.32,CV,1643674833
Acapulco de Juárez,16.8634,-99.8901,82.22,65,20,9.22,MX,1643674834
Correntina,-13.3433,-44.6367,70.02,89,77,0.98,BR,1643674835
Pangnirtung,66.1451,-65.7125,-30.37,94,96,3.69,CA,1643674835
Hokitika,-42.7167,170.9667,71.08,57,100,6.69,NZ,1643674836
Aban,56.67,96.06,-15.18,100,77,3.13,RU,1643674837
Hirara,24.8,125.2833,64.67,68,75,11.5,JP,1643674838
Ucluelet,48.9329,-125.5528,45.09,83,9,1.99,CA,1643674839
Nhulunbuy,-12.2333,136.7667,84.81,74,75,18.41,AU,1643674839
San Patricio,28.017,-97.5169,69.78,97,97,11.1,US,1643674722
Susanville,40.4163,-120.653,47.8,41,0,5.99,US,1643674744
Nabire,-3.3667,135.4833,78.21,80,100,0.56,ID,1643674841
Sterling,39.0062,-77.4286,32.14,62,100,8.05,US,1643674596
Atambua,-9.1061,124.8925,76.46,82,97,13.06,ID,1643674807
Russell,32.3502,-85.1999,56.8,57,0,0.0,US,1643674844
Seryshevo,51.0933,128.3786,-14.15,97,14,4.81,RU,1643674845
Chapais,49.7834,-74.8492,-16.82,99,79,3.04,CA,1643674565
Alofi,-19.0595,-169.9187,78.69,83,75,6.91,NU,1643674847
Neustrelitz,53.3667,13.0833,32.81,97,100,8.25,DE,1643674848
Porgera,-5.4667,143.2,53.53,66,100,3.18,PG,1643674848
Taoudenni,22.6783,-3.9836,67.66,8,68,12.66,ML,1643674849
Port Elizabeth,-33.918,25.5701,73.09,100,100,8.05,ZA,1643674850
Dawlatabad,36.4141,64.9053,43.72,44,0,4.5,AF,1643674851
Barpeta,26.3167,91.0,53.69,59,65,2.95,IN,1643674852
Matola,-25.9622,32.4589,76.51,88,3,2.66,MZ,1643674853
Krefeld,51.3333,6.5667,39.58,86,0,5.99,DE,1643674854
Matara,5.9485,80.5353,73.06,89,16,9.13,LK,1643674854
Huilong,31.8111,121.655,45.03,58,92,9.22,CN,1643674855
Motygino,58.1831,94.7592,-7.46,99,71,2.26,RU,1643674856
Hambantota,6.1241,81.1185,74.91,81,21,13.0,LK,1643674857
Yulara,-25.2406,130.9889,69.64,100,75,17.27,AU,1643674857
Hofn,64.2539,-15.2082,30.36,86,97,8.63,IS,1643674858
Rørvik,64.8621,11.2373,28.26,84,100,26.82,NO,1643674859
Aswān,24.0934,32.907,52.07,54,0,7.99,EG,1643674860
Philadelphia,39.9523,-75.1638,28.72,65,0,8.05,US,1643674729
Ahipara,-35.1667,173.1667,71.6,79,99,15.5,NZ,1643674861
Wuxue,29.8506,115.5525,40.15,90,100,0.98,CN,1643674862
Vanimo,-2.6741,141.3028,81.05,69,100,5.19,PG,1643674863
Safi,32.2994,-9.2372,61.86,57,0,14.45,MA,1643674865
Liberty,31.8335,-81.5004,55.51,47,75,0.0,US,1643674866
Krutinka,56.0055,71.5113,19.49,95,95,9.42,RU,1643674866
Vaitape,-16.5167,-151.75,81.07,72,6,21.16,PF,1643674686
Wasilla,61.5814,-149.4394,18.75,83,0,3.44,US,1643674867
Carmelo,-33.9892,-58.2856,73.17,48,5,9.15,UY,1643674868
Wajima,37.4,136.9,34.48,86,40,3.44,JP,1643674869
Tomatlán,19.9333,-105.25,83.77,31,0,10.98,MX,1643674870
Botou,38.0667,116.5667,20.82,41,0,2.48,CN,1643674870
Concordia,-31.393,-58.0209,78.78,59,0,7.0,AR,1643674803
Passo Fundo,-28.2628,-52.4067,69.48,47,18,5.39,BR,1643674872
Kavieng,-2.5744,150.7967,80.92,80,100,9.84,PG,1643674873
Pravdinskiy,56.0667,37.85,31.89,98,100,3.0,RU,1643674874
Rawson,-43.3002,-65.1023,75.07,22,31,14.47,AR,1643674642
Kobelyaky,49.1489,34.1965,25.72,90,75,12.75,UA,1643674875
Norman Wells,65.282,-126.8329,3.24,78,75,11.5,CA,1643674876
Jalu,29.0331,21.5482,53.33,66,47,9.42,LY,1643674877
Emerald,-23.5333,148.1667,90.34,48,63,8.84,AU,1643674878
Arrondissement de Saint-Denis,48.9167,2.3333,38.14,74,0,4.61,FR,1643674879
Calama,-22.4667,-68.9333,60.15,41,1,12.08,CL,1643674880
Lehututu,-23.9667,21.8667,71.85,71,100,12.71,BW,1643674880
Kholodnyy,62.7167,147.95,-10.52,100,94,4.68,RU,1643674881
Nome,64.5011,-165.4064,19.47,42,0,12.66,US,1643674882
Westport,41.1415,-73.3579,25.93,65,0,1.01,US,1643674883
Norden,53.6,7.2,40.96,70,99,19.71,DE,1643674883
Baruun-Urt,46.6806,113.2792,-11.69,95,10,5.48,MN,1643674884
Beyneu,45.3167,55.2,33.73,81,7,15.88,KZ,1643674885
Totness,5.8833,-56.3167,77.63,82,93,11.36,SR,1643674886
Yacuiba,-22.038,-63.6797,71.17,80,83,6.46,BO,1643674886
Ponta Delgada,37.7333,-25.6667,58.5,72,40,8.05,PT,1643674887
La Palma,33.8464,-118.0467,69.03,69,75,4.0,US,1643674888
Ruteng,-8.6136,120.4721,67.96,82,76,3.83,ID,1643674889
Lorengau,-2.0226,147.2712,78.35,88,100,12.71,PG,1643674889
Anadyr,64.75,177.4833,-5.51,90,100,6.06,RU,1643674891
Kerava,60.4034,25.105,20.75,77,20,4.0,FI,1643674892
Eureka,40.8021,-124.1637,53.74,72,83,10.0,US,1643674893
Leningradskiy,69.3833,178.4167,-17.01,94,67,9.53,RU,1643674893
Road Town,18.4167,-64.6167,77.04,78,20,4.61,VG,1643674715
Graaff-Reinet,-32.2522,24.5308,75.9,60,100,2.98,ZA,1643674895
Klaksvík,62.2266,-6.589,47.32,82,100,36.84,FO,1643674895
Akim Swedru,5.8938,-1.0164,69.87,90,100,2.13,GH,1643674896
Nikolskoye,59.7035,30.7861,24.69,96,100,5.08,RU,1643674897
Verkhoyansk,67.5447,133.385,-28.68,98,100,1.63,RU,1643674898
Ambilobe,-13.2,49.05,73.94,94,100,1.61,MG,1643674898
Pitangui,-19.6828,-44.8903,69.35,95,100,0.98,BR,1643674750
Woodward,36.4337,-99.3904,65.43,35,0,12.66,US,1643674900
Saint-Pierre,-21.3393,55.4781,76.68,73,0,9.22,RE,1643674901
Ukiah,39.1502,-123.2078,65.12,48,0,11.5,US,1643674880
Niterói,-22.8833,-43.1036,78.58,90,75,10.36,BR,1643674902
Pachino,36.7186,15.0907,53.64,78,17,32.73,IT,1643674903
Gillette,44.2911,-105.5022,34.95,44,100,23.0,US,1643674892
Ribeira Brava,32.65,-17.0667,66.0,84,35,14.03,PT,1643674904
Ewo,-0.8725,14.8206,77.67,57,89,3.0,CG,1643674905
Tiznit Province,29.5833,-9.5,63.37,42,99,5.1,MA,1643674906
Longyearbyen,78.2186,15.6401,13.84,62,40,2.3,SJ,1643674803
Balkhash,46.844,74.9804,12.2,84,100,9.17,KZ,1643674908
Conde,-7.2597,-34.9075,78.26,89,20,6.91,BR,1643674863
La Serena,-29.9078,-71.2542,64.99,78,39,5.12,CL,1643674625
Katsuura,35.1333,140.3,47.19,43,77,5.3,JP,1643674648
De Aar,-30.6497,24.0123,65.98,85,100,9.6,ZA,1643674911
Ostrovnoy,68.0531,39.5131,11.07,96,100,5.3,RU,1643674912
Ahar,38.4774,47.0699,15.91,88,100,7.9,IR,1643674913
Tasiilaq,65.6145,-37.6368,8.76,98,96,5.26,GL,1643674914
Luanda,-8.8368,13.2343,77.0,83,75,8.05,AO,1643674915
Porto-Novo,6.4965,2.6036,78.62,79,60,4.41,BJ,1643674915
Palmer,42.1584,-72.3287,19.81,68,53,1.97,US,1643674737
Lodja,-3.4833,23.4333,69.37,98,100,3.42,CD,1643674917
Cabo San Lucas,22.8909,-109.9124,75.61,61,1,3.0,MX,1643674699
Dali,25.7,100.1833,38.73,85,42,3.91,CN,1643674918
Ust-Kuyga,70.0167,135.6,-30.89,100,99,2.37,RU,1643674919
Turukhansk,65.8167,87.9833,9.64,94,100,11.86,RU,1643674920
Caravelas,-17.7125,-39.2481,78.71,87,3,8.97,BR,1643674920
Sørland,67.667,12.6934,34.09,56,100,10.71,NO,1643674921
Le Lorrain,14.8329,-61.0567,73.76,62,52,8.34,MQ,1643674922
Bonthe,7.5264,-12.505,76.96,91,56,5.88,SL,1643674922
Bubaque,11.2833,-15.8333,77.52,67,88,13.18,GW,1643674923
Ileza,61.0533,43.9002,11.28,95,97,8.32,RU,1643674924
Bambous Virieux,-20.3428,57.7575,79.21,78,75,18.41,MU,1643674802
Inírida,3.8653,-67.9239,78.58,57,95,1.72,CO,1643674926
Nishihara,26.1842,127.7558,62.65,64,75,5.75,JP,1643674927
Mayo,38.8876,-76.5119,32.95,63,0,8.01,US,1643674928
Tahoua,14.8888,5.2692,62.58,11,0,8.05,NE,1643674928
Oussouye,12.485,-16.5469,75.38,73,100,11.74,SN,1643674929
Fundão,-19.9341,-40.4047,74.73,88,71,2.98,BR,1643674930
Mutsu,41.2894,141.2169,23.02,100,75,3.44,JP,1643674931
Orlovskiy,46.8714,42.0592,30.79,96,100,8.9,RU,1643674931
Yakima,46.4665,-120.6678,45.23,57,0,10.36,US,1643674933
Kumul,42.8,93.45,19.76,39,1,2.13,CN,1643674934
Ocampo,21.65,-101.5,64.22,19,6,20.47,MX,1643674934
Kutum,14.2,24.6667,49.48,26,0,8.16,SD,1643674935
State College,40.7934,-77.86,27.54,63,100,0.0,US,1643674572
Aykhal,66.0,111.5,-27.47,100,89,4.97,RU,1643674937
Laguna,38.421,-121.4238,64.69,54,0,3.0,US,1643674937
Kambam,5.2505,96.8629,76.5,83,100,3.91,ID,1643674938
Seohāra,29.2167,78.5833,49.12,74,0,5.95,IN,1643674939
Eirunepé,-6.6603,-69.8736,79.45,69,98,2.33,BR,1643674812
Dubbo,-32.25,148.6167,80.73,61,100,1.14,AU,1643674940
Shelburne,44.0787,-80.2041,22.89,96,67,4.76,CA,1643674941
Esperance,-33.8667,121.9,62.26,57,87,16.89,AU,1643674943
Manzanillo,20.3433,-77.1167,72.09,70,63,16.17,CU,1643674943
Ugoofaaru,5.6667,73.0,82.29,72,11,12.57,MV,1643674944
Kuah,6.3265,99.8432,80.58,74,20,6.91,MY,1643674945
Ulladulla,-35.35,150.4667,90.88,54,20,3.2,AU,1643674946
Wukari,7.85,9.7833,69.53,22,14,5.3,NG,1643674946
Zheleznodorozhnyy,55.7503,38.0042,30.42,99,100,2.64,RU,1643674947
Tual,-5.6667,132.75,83.86,74,100,21.65,ID,1643674948
Kachug,53.9606,105.8817,-23.98,100,98,0.47,RU,1643674949
Avera,33.194,-82.5271,49.71,50,97,5.44,US,1643674950
Ébolowa,2.9,11.15,67.53,99,88,2.39,CM,1643674950
Kiryat Gat,31.61,34.7642,52.39,100,53,8.1,IL,1643674951
Clyde River,70.4692,-68.5914,-30.77,68,100,8.05,CA,1643674952
Kayerkan,69.3497,87.7602,5.52,77,99,7.78,RU,1643674953
São Domingos,-13.3983,-46.3183,70.23,89,97,2.89,BR,1643674954
Revda,56.801,59.9303,11.21,99,98,3.51,RU,1643674954
Langham,52.3668,-106.9679,6.03,90,100,23.44,CA,1643674715
Port Hardy,50.6996,-127.4199,44.76,81,75,10.36,CA,1643674957
Mahajanga,-15.7167,46.3167,78.82,94,20,3.44,MG,1643674957
Pisco,-13.7,-76.2167,71.65,78,75,18.41,PE,1643674958
Kintampo,8.0563,-1.7306,75.9,13,100,2.91,GH,1643674959
Inuvik,68.3499,-133.7218,1.44,84,75,9.22,CA,1643674960
Manokwari,-0.8667,134.0833,78.76,74,100,11.21,ID,1643674760
Filingué,14.3521,3.3168,64.74,12,0,10.27,NE,1643674961
Nador,35.174,-2.9287,64.65,39,0,10.36,MA,1643674962
Xiongyue,40.1774,122.1228,16.09,70,37,12.28,CN,1643674963
Pemangkat,1.1667,108.9667,76.48,87,79,4.21,ID,1643674964
Cayenne,4.9333,-52.3333,80.1,83,40,5.99,GF,1643674965
Pochutla,15.7432,-96.4661,80.82,64,15,9.86,MX,1643674966
Auki,-8.7676,160.7034,85.86,66,100,1.34,SB,1643674967
Yumen,40.2833,97.2,14.4,30,96,5.79,CN,1643674968
Neiafu,-18.65,-173.9833,84.88,70,20,5.75,TO,1643674969
Paamiut,61.994,-49.6678,20.88,79,100,16.35,GL,1643674969
Guilin,25.2819,110.2864,39.31,90,99,7.11,CN,1643674970
Machacamarca,-18.1667,-67.0333,51.78,71,73,14.65,BO,1643674971
Las Varas,21.1667,-105.1667,85.48,58,0,4.61,MX,1643674972
Juneau,58.3019,-134.4197,27.21,89,91,4.85,US,1643674724
Zhigansk,66.7697,123.3711,-30.69,99,88,7.34,RU,1643674942
Eruwa,7.5333,3.4167,73.6,36,54,1.1,NG,1643674974
Kenora,49.8167,-94.4337,22.98,73,100,10.36,CA,1643674975
Cap Malheureux,-19.9842,57.6142,79.47,72,67,8.99,MU,1643674976
Chidambaram,11.4,79.7,73.78,82,16,4.79,IN,1643674976
Gijang,35.2442,129.2139,38.93,51,11,12.64,KR,1643674977
Margate,51.3813,1.3862,41.95,83,38,1.99,GB,1643674978
Merauke,-8.4667,140.3333,80.56,79,100,10.83,ID,1643674978
Darhan,49.4867,105.9228,-16.06,98,40,3.85,MN,1643674979
Zyryanka,65.75,150.85,-12.08,94,100,11.48,RU,1643674980
Bourail,-21.5667,165.4833,84.25,62,100,5.99,NC,1643674981
Lorca,37.6712,-1.7017,57.34,38,0,8.05,ES,1643674983
Pacific Grove,36.6177,-121.9166,59.58,84,0,1.01,US,1643674732
Atuntaqui,0.3333,-78.2167,55.22,95,97,2.26,EC,1643674984
São Félix do Xingu,-6.6447,-51.995,71.64,97,98,1.1,BR,1643674985
San Quintín,30.4833,-115.95,61.56,61,84,10.85,MX,1643674986
Rocha,-34.4833,-54.3333,60.15,63,6,6.4,UY,1643674947
Onokhoy,51.932,108.0747,-25.85,100,47,2.59,RU,1643674987
Goderich,43.7501,-81.7165,19.9,79,32,4.61,CA,1643674988
Samarai,-10.6167,150.6667,85.08,67,100,12.66,PG,1643674989
Sopela,43.3789,-2.9831,52.81,76,75,5.01,ES,1643674990
Acajutla,13.5928,-89.8275,78.8,64,3,8.12,SV,1643674991
Vao,-22.6667,167.4833,77.88,84,100,9.06,NC,1643674992
Midland,31.9974,-102.0779,63.95,26,0,4.61,US,1643674810
Quelimane,-17.8786,36.8883,73.2,86,0,2.24,MZ,1643674995
High Level,58.5169,-117.136,-5.69,77,75,0.0,CA,1643674995
Drymen,56.0655,-4.452,49.39,94,100,13.98,GB,1643674996
Biltine,14.5333,20.9167,58.8,20,2,17.07,TD,1643674997
Half Moon Bay,37.4636,-122.4286,61.7,74,0,1.99,US,1643674952
Shubarshi,48.5872,57.1869,18.39,92,100,8.34,KZ,1643674999
Olinda,-8.0089,-34.8553,80.33,78,40,4.61,BR,1643674922
Kamenka,51.3223,42.7678,31.75,89,100,17.92,RU,1643675000
Tura,25.5198,90.2201,54.81,65,25,4.99,IN,1643675000
Tarakan,3.3,117.6333,81.9,83,20,3.44,ID,1643675001
Ialibu,-6.2821,143.9935,60.21,84,100,3.09,PG,1643675003
Puerto Colombia,10.9878,-74.9547,78.08,79,2,23.71,CO,1643675004
Sakakah,29.9697,40.2064,47.77,57,2,9.84,SA,1643675005
Derzhavīnsk,51.1,66.3167,18.63,94,100,15.08,KZ,1643675005
Moranbah,-22.0016,148.0466,86.68,53,22,6.26,AU,1643675006
Sitka,57.0531,-135.33,35.49,80,75,0.0,US,1643675007
Tamale,9.4008,-0.8393,76.28,11,93,7.45,GH,1643675008
Fort Nelson,58.8053,-122.7002,-4.41,77,75,5.75,CA,1643675008
Havre-St-Pierre,50.2334,-63.5986,12.79,72,100,11.5,CA,1643675009
Blackpool,53.8167,-3.05,47.79,90,99,25.86,GB,1643674742
Changji,44.0167,87.3167,0.39,85,75,2.24,CN,1643675010
Mandalgovi,45.7625,106.2708,2.3,57,3,6.22,MN,1643675011
Kamaishi,39.2667,141.8833,20.35,49,3,2.93,JP,1643675012
Miastko,54.0028,16.9826,27.52,78,80,4.7,PL,1643675013
Korla,41.7597,86.1469,21.79,56,50,1.23,CN,1643675014
Malchevskaya,49.0552,40.3625,28.17,90,97,14.32,RU,1643675016
Salina,38.8403,-97.6114,59.31,23,0,10.36,US,1643674735
Hīrna,9.2167,41.1,57.65,34,70,1.1,ET,1643675017
The Valley,18.217,-63.0578,78.66,72,1,7.81,AI,1643675018
Boende,-0.2167,20.8667,71.49,68,98,2.35,CD,1643675019
Waingapu,-9.6567,120.2641,82.13,75,61,16.06,ID,1643675019
Aschersleben,51.75,11.4667,35.89,97,100,10.38,DE,1643675021
Irbeyskoye,55.6428,95.4522,-14.48,100,75,1.39,RU,1643675021
Kyzyl-Suu,42.3414,78.0056,16.59,58,46,9.55,KG,1643675022
Airai,-8.9266,125.4092,67.42,70,78,5.57,TL,1643674808
Pierre,44.3683,-100.351,47.32,61,100,5.01,US,1643674500
Orotukan,62.2667,151.7,-9.18,99,100,4.23,RU,1643675024
Batticaloa,7.7102,81.6924,78.44,67,96,7.38,LK,1643675025
Nivala,63.9167,24.9667,5.68,97,68,4.21,FI,1643675026
Rūdsar,37.1376,50.288,48.25,58,100,4.25,IR,1643675027
Bergen,60.392,5.328,35.65,94,75,6.91,NO,1643674740
Abu Kamal,34.4506,40.9171,46.78,77,100,10.96,SY,1643675028
Makakilo City,21.3469,-158.0858,79.12,58,0,8.05,US,1643674801
San Jose,37.3394,-121.895,61.41,68,100,4.61,US,1643674966
Piranshahr,36.701,45.1413,21.29,76,100,3.65,IR,1643675030
Lubango,-14.9172,13.4925,58.32,68,100,5.32,AO,1643675031
Alyangula,-13.8483,136.4192,85.87,84,40,13.8,AU,1643675031
Pindiga,9.9833,10.9333,63.72,25,2,11.36,NG,1643675032
Ibirapitanga,-14.1642,-39.3736,72.45,99,34,1.57,BR,1643675033
Riberalta,-10.9833,-66.1,73.94,88,80,2.1,BO,1643675034
Marsh Harbour,26.5412,-77.0636,64.63,52,0,9.78,BS,1643675035
Sakaraha,-22.9,44.5333,70.2,63,8,6.11,MG,1643675035
Upington,-28.4478,21.2561,70.18,94,75,5.75,ZA,1643675036
Tautira,-17.7333,-149.15,84.22,78,33,19.39,PF,1643675037
Bayjī,34.9311,43.487,47.68,77,100,9.8,IQ,1643675038
Rio Claro,-22.4114,-47.5614,72.39,95,100,3.67,BR,1643674803
Lincoln,40.8,-96.667,55.78,27,0,3.0,US,1643674981
Bathsheba,13.2167,-59.5167,79.41,78,40,9.22,BB,1643675039
Faya,18.3851,42.4509,53.71,83,6,5.77,SA,1643675040
Huarmey,-10.0681,-78.1522,71.92,80,84,8.61,PE,1643675041
Dumai,1.6833,101.45,74.32,92,91,1.01,ID,1643675042
Launceston,-41.45,147.1667,77.61,62,75,5.99,AU,1643675043
Porto Murtinho,-21.6989,-57.8825,86.41,35,47,4.23,BR,1643675044
Corinth,37.9407,22.9573,54.54,81,100,3.18,GR,1643675044
Namtsy,62.7161,129.6658,-23.69,100,100,2.39,RU,1643675045
Saint-Augustin,51.226,-58.6502,3.11,96,95,6.35,CA,1643675046
Novy Urengoy,66.0833,76.6333,-2.09,98,100,6.35,RU,1643674899
Cururupu,-1.8283,-44.8683,74.97,95,98,4.14,BR,1643675048
Waverly,42.7392,-84.6208,25.83,73,43,8.37,US,1643675048
Novocherkassk,47.4181,40.0939,33.82,86,0,15.66,RU,1643675049
Capitão Poço,-1.7464,-47.0594,72.36,93,100,5.91,BR,1643675050
Marzuq,14.4,46.4667,59.5,63,48,5.28,YE,1643675051
Paramonga,-10.6667,-77.8333,71.42,82,77,8.32,PE,1643675052
Alta Floresta,-9.8756,-56.0861,70.7,97,73,2.44,BR,1643675053
Saint-Joseph,-21.3667,55.6167,75.58,79,100,15.43,RE,1643675053
Port Keats,-14.25,129.55,82.18,80,57,22.37,AU,1643675054
Emmen,52.7792,6.9069,38.82,86,90,3.0,NL,1643675055
Kattivākkam,13.2167,80.3167,76.06,84,43,0.2,IN,1643675056
Hay River,60.8156,-115.7999,-5.82,71,40,8.05,CA,1643675057
Baker City,44.7749,-117.8344,32.59,93,75,8.05,US,1643675058
Beeville,28.4008,-97.7483,66.34,94,100,5.75,US,1643675058
Nouadhibou,20.931,-17.0347,67.98,73,100,6.91,MR,1643675059
Portage,41.1667,-81.1998,21.18,56,0,0.0,US,1643674911
Husavik,66.0449,-17.3389,22.91,92,100,14.81,IS,1643675061
Zabaykal'sk,49.6333,117.3167,-17.43,99,20,5.97,RU,1643675062
Offa,8.15,4.7167,71.49,14,61,4.14,NG,1643675062
Taunggyi,20.7833,97.0333,43.11,58,10,3.33,MM,1643675063
Mount Isa,-20.7333,139.5,85.77,66,40,9.22,AU,1643674963
Ancud,-41.8697,-73.8203,60.42,75,11,8.12,CL,1643675066
Sinnamary,5.3833,-52.95,76.8,86,100,9.4,GF,1643675067
Kasempa,-13.4584,25.8338,63.0,96,99,4.83,ZM,1643675069
Nyurba,63.2842,118.3319,-31.29,100,97,1.77,RU,1643675069
Puerto Madryn,-42.7692,-65.0385,72.36,28,48,14.41,AR,1643675071
Le Vauclin,14.5452,-60.8388,73.85,88,0,5.75,MQ,1643675072
Nuuk,64.1835,-51.7216,18.21,93,100,14.97,GL,1643675072
Gaziantep,37.0594,37.3825,35.53,93,75,5.75,TR,1643675074
Pilar,-9.5972,-35.9567,78.73,83,6,5.12,BR,1643675075
Stornoway,58.2093,-6.3865,49.96,92,75,15.01,GB,1643675049
Otta,61.7712,9.5353,10.29,94,90,2.37,NO,1643675077
Hearst,49.6835,-83.6665,17.85,93,98,10.18,CA,1643675042
Lüderitz,-26.6481,15.1594,65.66,87,9,5.5,NA,1643674799
Katherine,-14.4667,132.2667,77.32,88,75,13.8,AU,1643675079
Sioux Lookout,50.1001,-91.917,23.38,80,100,5.75,CA,1643675080
Neuquén,-38.9516,-68.0591,78.69,25,0,5.75,AR,1643675081
Sandwick,60.0,-1.25,42.62,93,100,24.16,GB,1643675082
Ballina,-28.8667,153.5667,87.98,69,40,9.22,AU,1643675083
Juruti,-2.1522,-56.0922,75.09,91,84,4.12,BR,1643675083
Paso de los Toros,-32.8167,-56.5167,65.82,52,0,13.11,UY,1643675084
Nuevo Progreso,23.1667,-97.95,73.6,64,56,1.01,MX,1643675085
Forsytheganj,52.6333,29.7333,24.87,94,100,11.68,BY,1643675085
Moindou,-21.6924,165.677,78.75,67,96,5.75,NC,1643675086
San Miguel de Cozumel,20.5083,-86.9458,70.95,77,20,3.0,MX,1643675048
Bonavista,48.6499,-53.1147,32.11,70,63,15.37,CA,1643675088
Ferkessédougou,9.6,-5.2,74.23,15,32,4.94,CI,1643675088
Riyadh,24.6877,46.7219,64.54,40,27,7.05,SA,1643674845
